City,Cloudiness,Country,Date,Humidity,Lat,Lng,Max Temp,Wind Speed
Butaritari,99,KI,1619282591,73,3.0707,172.7902,301.01,4.14
Tuktoyaktuk,75,CA,1619282131,79,69.4541,-133.0374,265.15,2.06
Mar del Plata,40,AR,1619282134,60,-38.0023,-57.5575,293.15,7.2
Luganville,89,VU,1619282591,86,-15.5333,167.1667,299.41,2.72
Lüderitz,1,NA,1619282591,79,-26.6481,15.1594,290.97,2.91
Virginia Beach,90,US,1619282592,48,36.8529,-75.978,292.59,3.6
Gambēla,96,ET,1619282592,76,8.25,34.5833,297.35,2.42
Port Lincoln,3,AU,1619282594,68,-34.7333,135.8667,287.65,1.75
Coahuayana Viejo,40,MX,1619282134,32,18.7333,-103.6833,301.15,2.53
Rikitea,100,PF,1619282594,71,-23.1203,-134.9692,299.04,6.9
Hilo,90,US,1619282595,78,19.7297,-155.09,294.15,2.56
Avarua,75,CK,1619282243,78,-21.2078,-159.775,299.15,6.17
Khedbrahma,100,IN,1619282596,28,24.0333,73.05,303.58,1.79
Cherskiy,100,RU,1619282596,96,68.75,161.3,266.03,1.83
Hay River,99,CA,1619282379,68,60.8156,-115.7999,266.15,3.6
Taoudenni,0,ML,1619282596,7,22.6783,-3.9836,312.91,6.67
Salalah,19,OM,1619282299,73,17.0151,54.0924,301.22,3.38
Chui,100,UY,1619282130,66,-33.6971,-53.4616,295.22,4.02
Kulhudhuffushi,66,MV,1619282533,70,6.6221,73.07,302.09,1.86
Russell,75,US,1619282598,73,32.3502,-85.1999,295.15,3.09
Ilulissat,75,GL,1619282137,60,69.2167,-51.1,277.15,2.06
Mariental,0,NA,1619282598,16,-24.6333,17.9667,297.59,3.76
Mataura,57,NZ,1619282151,78,-46.1927,168.8643,282.04,3.58
George Town,20,MY,1619281849,78,5.4112,100.3354,301.48,1.54
Qaanaaq,100,GL,1619282599,65,77.484,-69.3632,270.97,3.78
Saint-Pierre,45,RE,1619282565,88,-21.3393,55.4781,298.15,12.86
Hermanus,97,ZA,1619282599,76,-34.4187,19.2345,291.48,5.61
Lebedyan',73,RU,1619282599,70,53.0194,39.1664,277.14,6.07
Puerto Ayora,75,EC,1619282161,78,-0.7393,-90.3518,300.15,5.66
Walvis Bay,21,NA,1619282600,68,-22.9575,14.5053,292.15,6.17
Yokadouma,100,CM,1619282600,80,3.5167,15.05,296.95,1.34
Busselton,1,AU,1619282138,92,-33.65,115.3333,285.37,0.52
Saldanha,91,ZA,1619282193,56,-33.0117,17.9442,293.15,4.12
Atuona,36,PF,1619282136,75,-9.8,-139.0333,300.05,9.64
Imbituba,20,BR,1619282600,69,-28.24,-48.6703,298.15,3.6
Tasiilaq,75,GL,1619282154,70,65.6145,-37.6368,277.15,1.03
Westport,20,US,1619282440,41,41.1415,-73.3579,293.15,7.2
Lerwick,90,GB,1619282602,81,60.1545,-1.1494,280.15,5.14
Port Alfred,51,ZA,1619282138,84,-33.5906,26.891,293.36,4.86
Aquiraz,20,BR,1619282603,74,-3.9014,-38.3911,303.15,8.75
Nikolskoye,20,RU,1619282604,61,59.7035,30.7861,279.26,2.0
Pierre,1,US,1619282604,74,44.3683,-100.351,273.15,2.57
Bahía Solano,85,CO,1619282604,81,6.2262,-77.4044,300.82,1.84
Petrovsk-Zabaykal'skiy,100,RU,1619282604,57,51.273,108.843,281.34,1.08
Punta Arenas,0,CL,1619282522,87,-53.15,-70.9167,281.15,2.95
Alenquer,40,BR,1619282605,74,-1.9417,-54.7383,303.15,4.12
Geraldton,27,AU,1619282605,94,-28.7667,114.6,290.15,3.09
Lebu,2,CL,1619282324,69,-37.6167,-73.65,287.56,7.44
Basco,76,PH,1619282606,73,20.4487,121.9702,297.81,5.54
Jalu,5,LY,1619282606,37,29.0331,21.5482,298.35,12.78
Colares,20,PT,1619282606,72,38.7992,-9.4469,293.15,5.14
Atasū,100,KZ,1619282198,26,48.6814,71.6433,279.32,5.2
Faya,75,SA,1619282305,72,18.3851,42.4509,291.15,8.75
Arraial do Cabo,0,BR,1619282607,69,-22.9661,-42.0278,299.15,4.63
Bonthe,41,SL,1619282310,60,7.5264,-12.505,303.57,5.69
Albany,62,US,1619282607,22,42.6001,-73.9662,293.15,0.89
Upernavik,32,GL,1619282607,86,72.7868,-56.1549,274.5,1.28
Mildura,2,AU,1619282608,76,-34.2,142.15,284.15,3.09
Coyhaique,90,CL,1619282608,76,-45.5752,-72.0662,284.15,2.06
Hong Kong,37,HK,1619281932,85,22.2855,114.1577,298.15,0.45
Bonavista,56,CA,1619282197,53,48.6499,-53.1147,282.15,5.14
Vardø,100,NO,1619282609,93,70.3705,31.1107,274.03,10.56
Ţahţā,0,EG,1619282609,14,26.7693,31.5021,305.15,7.2
Daru,85,PG,1619282609,84,-9.0763,143.2092,299.84,2.47
Kapaa,75,US,1619282140,73,22.0752,-159.319,296.15,7.72
Cayenne,75,GF,1619282220,94,4.9333,-52.3333,298.15,3.09
Rodolfo Sánchez Taboada,28,MX,1619282610,74,31.7167,-116.5667,291.48,1.34
Chokurdakh,17,RU,1619282610,99,70.6333,147.9167,247.03,1.88
Makaha,75,US,1619282611,83,21.4694,-158.2175,295.15,2.06
Ushuaia,40,AR,1619282060,58,-54.8,-68.3,286.15,7.2
Raudeberg,90,NO,1619282612,56,61.9875,5.1352,279.26,5.66
Vostok,60,RU,1619282274,49,46.4856,135.8833,271.87,4.83
Saint-Philippe,87,RE,1619282613,88,-21.3585,55.7679,298.15,12.86
Wadi Maliz,40,TN,1619282613,38,36.4681,8.5495,296.15,2.57
Vaini,75,TO,1619282129,100,-21.2,-175.2,294.15,3.03
Monrovia,75,LR,1619282187,66,6.3005,-10.7969,305.15,4.63
Omsukchan,44,RU,1619282273,99,62.5333,155.8,249.64,2.25
Kruisfontein,93,ZA,1619282171,91,-34.0033,24.7314,288.71,1.34
Jitra,40,MY,1619282614,89,6.2681,100.4217,299.15,1.03
Bubaque,3,GW,1619282192,68,11.2833,-15.8333,299.06,9.46
Takapau,58,NZ,1619282615,81,-40.0333,176.35,284.82,3.13
Hobyo,37,SO,1619282616,69,5.3505,48.5268,302.18,6.09
New Norfolk,40,AU,1619282200,81,-42.7826,147.0587,282.59,3.09
Saint-Augustin,94,CA,1619282150,77,51.226,-58.6502,276.58,5.97
Mareeba,90,AU,1619282616,100,-17.0,145.4333,296.48,6.17
Riyadh,0,SA,1619281957,10,24.6877,46.7219,309.15,3.09
Torbay,75,CA,1619282126,43,47.6666,-52.7314,283.15,10.29
Beringovskiy,96,RU,1619282248,98,63.05,179.3167,270.9,1.5
Statesboro,90,US,1619282573,88,32.4488,-81.7832,292.15,1.54
Barrow,1,US,1619282167,86,71.2906,-156.7887,265.15,2.06
Bani Walid,0,LY,1619282618,44,31.7566,13.9942,293.13,8.49
Puerto Santander,40,CO,1619282618,58,8.3636,-72.4063,303.15,5.14
Severo-Kuril'sk,100,RU,1619282196,94,50.6789,156.125,274.82,2.68
Cape Town,0,ZA,1619282160,72,-33.9258,18.4232,290.93,6.17
Ponta do Sol,40,PT,1619282121,63,32.6667,-17.1,292.15,4.12
Great Falls,90,US,1619282531,75,47.5002,-111.3008,275.93,2.57
Fairbanks,1,US,1619282546,60,64.8378,-147.7164,279.26,4.12
Dikson,100,RU,1619282186,85,73.5069,80.5464,263.13,8.25
Saint George,95,US,1619282151,21,37.1041,-113.5841,296.48,4.75
Jamestown,1,US,1619282619,33,42.097,-79.2353,288.71,1.54
Rawson,5,AR,1619282203,50,-43.3002,-65.1023,288.08,0.37
Ostrovnoy,100,RU,1619282478,99,68.0531,39.5131,275.67,0.74
Oranjemund,6,NA,1619282620,86,-28.55,16.4333,289.04,3.03
Narsaq,75,GL,1619282251,27,60.9167,-46.05,289.15,11.32
Cabo San Lucas,1,MX,1619282271,38,22.8909,-109.9124,299.26,2.57
Tarauacá,39,BR,1619282621,77,-8.1614,-70.7656,302.37,1.49
Altay,99,CN,1619282622,58,47.8667,88.1167,270.57,1.84
Vao,100,NC,1619282245,66,-22.6667,167.4833,297.6,4.94
Menzelinsk,75,RU,1619282622,87,55.7271,53.1026,281.15,3.0
Ola,91,RU,1619282176,69,59.5833,151.2833,264.22,6.81
Ol'ga,7,RU,1619282623,64,43.7444,135.2892,275.64,2.45
Bell Ville,27,AR,1619282623,64,-32.6259,-62.6887,296.48,3.13
Vila Franca do Campo,75,PT,1619282243,88,37.7167,-25.4333,288.15,6.69
Birin,7,NP,1619282260,37,26.8865,88.0718,290.75,3.15
Port Shepstone,15,ZA,1619282623,83,-30.7414,30.455,294.14,5.38
Henties Bay,2,NA,1619282624,83,-22.116,14.2845,291.72,4.06
Tres Arroyos,38,AR,1619282624,45,-38.3739,-60.2798,290.93,7.39
Kenai,1,US,1619282201,86,60.5544,-151.2583,276.48,1.6
San Quintín,37,MX,1619282624,68,30.4833,-115.95,290.0,5.48
Castro,18,BR,1619282625,48,-24.7911,-50.0119,296.77,2.32
Idaho Falls,90,US,1619282624,34,43.4666,-112.0341,286.48,5.14
Nānākuli,1,US,1619282180,73,21.3906,-158.1547,295.15,2.06
Carnarvon,0,AU,1619282124,78,-24.8667,113.6333,294.15,3.09
Porto Velho,75,BR,1619282475,79,-8.7619,-63.9039,302.15,1.54
Hobart,40,AU,1619282498,81,-42.8794,147.3294,282.59,3.09
Qaqortoq,75,GL,1619282249,27,60.7167,-46.0333,289.15,11.32
Lavrentiya,91,RU,1619282162,95,65.5833,-171.0,268.15,1.15
Faanui,100,PF,1619282199,75,-16.4833,-151.75,299.7,3.75
Norman Wells,75,CA,1619282153,54,65.282,-126.8329,271.15,1.54
Brigantine,1,US,1619282627,24,39.4101,-74.3646,294.26,2.57
Luziânia,40,BR,1619282627,44,-16.2525,-47.9503,302.04,3.09
Yaan,92,NG,1619282627,61,7.3833,8.5667,303.04,4.21
Codrington,100,AU,1619282311,91,-38.2667,141.9667,283.49,2.89
Yellowknife,20,CA,1619282523,57,62.456,-114.3525,264.26,4.63
Korla,12,CN,1619282257,44,41.7597,86.1469,284.16,3.9
Ribeira Grande,75,PT,1619282175,67,38.5167,-28.7,289.15,8.75
Talnakh,100,RU,1619281991,98,69.4865,88.3972,273.47,5.81
Richards Bay,85,ZA,1619281990,85,-28.783,32.0377,293.91,5.76
Rehoboth,26,NA,1619282629,21,-23.3167,17.0833,295.8,3.59
Copiapó,40,CL,1619282629,59,-27.3667,-70.3333,292.15,3.6
Jequié,30,BR,1619282630,39,-13.8575,-40.0836,305.86,2.27
São Paulo de Olivença,40,BR,1619282630,66,-3.3783,-68.8725,304.23,0.49
Kaspiysk,8,RU,1619282341,87,42.8816,47.6392,284.82,2.0
Hithadhoo,41,MV,1619282367,69,-0.6,73.0833,301.78,2.96
Litovko,75,RU,1619282632,50,49.2361,135.1742,274.34,3.15
Sorong,87,ID,1619282633,85,-0.8833,131.25,299.31,3.19
Ginda,98,IN,1619282633,64,30.6945,78.4932,281.71,4.34
Gold Coast,45,AU,1619282634,94,-28.0,153.4333,288.15,0.51
Emerald,75,AU,1619282634,82,-23.5333,148.1667,290.15,3.09
Bluff,82,NZ,1619282634,78,-46.6,168.3333,282.04,2.68
Eyl,20,SO,1619282634,72,7.9803,49.8164,301.76,3.96
Gamba,100,GA,1619282367,84,-2.65,10.0,299.07,1.85
Careiro da Várzea,40,BR,1619282635,66,-3.2003,-59.8119,303.15,2.06
Cidreira,25,BR,1619282184,62,-30.1811,-50.2056,297.51,5.16
Kapit,78,MY,1619282390,99,2.0167,112.9333,295.93,0.4
Rio Verde de Mato Grosso,39,BR,1619282635,22,-18.9181,-54.8442,307.75,3.04
Agboville,100,CI,1619282636,74,5.928,-4.2132,302.38,2.11
Knysna,75,ZA,1619282636,94,-34.0363,23.0471,287.15,2.06
Mahébourg,75,MU,1619282136,83,-20.4081,57.7,299.15,5.66
Nădlac,22,RO,1619282636,41,46.1667,20.75,287.15,3.09
Tiksi,100,RU,1619282377,93,71.6872,128.8694,272.51,5.69
Tianpeng,100,CN,1619282637,1,30.9866,103.9393,292.59,2.49
Mount Gambier,75,AU,1619282171,100,-37.8333,140.7667,282.15,1.33
Coquimbo,20,CL,1619282182,67,-29.9533,-71.3436,290.15,5.14
Igrim,96,RU,1619282637,79,63.1906,64.4162,280.45,1.83
Kutum,58,SD,1619282299,12,14.2,24.6667,304.13,4.57
Vanimo,92,PG,1619282637,86,-2.6741,141.3028,298.67,0.75
Barentu,44,ER,1619282638,18,15.1139,37.5928,305.53,2.33
Abu Samrah,58,SY,1619282241,32,35.3029,37.1841,298.07,4.96
Bamberg,0,DE,1619282638,31,49.8795,10.8863,290.15,2.06
Saskylakh,100,RU,1619282193,93,71.9167,114.0833,273.41,6.19
Hamilton,90,US,1619281987,62,39.1834,-84.5333,285.37,3.09
Bredasdorp,95,ZA,1619282638,77,-34.5322,20.0403,289.15,1.54
San Ramon,40,US,1619282639,66,37.7799,-121.978,286.48,3.6
Itamaracá,20,BR,1619282639,61,-7.7478,-34.8256,302.15,3.09
Srandakan,14,ID,1619282639,82,-7.9386,110.2506,297.67,1.61
Hofn,100,IS,1619282220,78,64.2539,-15.2082,281.34,1.88
Vila Velha,20,BR,1619282209,61,-20.3297,-40.2925,301.48,5.14
Kaitangata,47,NZ,1619282640,88,-46.2817,169.8464,280.37,0.89
Port Elizabeth,0,ZA,1619282148,94,-33.918,25.5701,288.15,3.6
Kaka,83,TM,1619282642,39,37.3482,59.6143,296.09,1.77
Cockburn Town,40,TC,1619282131,65,21.4612,-71.1419,301.15,6.17
Khatanga,100,RU,1619282187,97,71.9667,102.5,273.34,7.34
Arona,20,ES,1619282174,41,28.0996,-16.681,298.15,10.29
Mahibadhoo,52,MV,1619282287,73,3.7833,72.9667,301.94,3.56
Esperance,98,AU,1619282258,77,-33.8667,121.9,288.15,5.14
Formosa,90,AR,1619282643,94,-26.1775,-58.1781,293.15,3.6
Port Hedland,0,AU,1619282643,68,-20.3167,118.5667,294.15,3.09
Sabha,2,LY,1619282644,16,27.0377,14.4283,304.73,7.48
College,20,US,1619282644,56,64.8569,-147.8028,279.26,1.54
Touros,75,BR,1619282262,74,-5.1989,-35.4608,302.15,4.12
Tura,65,IN,1619282128,29,25.5198,90.2201,298.79,1.93
Dehui,0,CN,1619282644,41,44.5333,125.7,276.15,1.0
Broome,40,US,1619282645,33,42.2506,-75.833,290.93,5.66
Shingū,4,JP,1619282645,86,33.7333,135.9833,284.4,2.25
Jefferson City,90,US,1619282409,76,38.5767,-92.1735,286.15,5.14
Séguéla,78,CI,1619282645,38,7.9611,-6.6731,307.97,2.67
San Patricio,1,US,1619282274,18,28.017,-97.5169,307.15,6.17
Canutama,62,BR,1619282204,85,-6.5339,-64.3831,301.24,1.55
São Desidério,69,BR,1619282646,49,-12.3633,-44.9733,303.96,1.87
San Policarpo,93,PH,1619282646,86,12.1791,125.5072,298.45,2.17
Pomabamba,63,PE,1619282646,59,-8.8333,-77.4667,288.84,2.39
Rock Sound,85,BS,1619282298,72,24.9,-76.2,298.69,7.03
Anadyr,40,RU,1619282647,100,64.75,177.4833,272.15,7.0
Luján,20,AR,1619282647,59,-34.5703,-59.105,295.37,2.24
Goālpāra,56,IN,1619282647,29,26.1667,90.6167,300.67,1.13
Itupiranga,75,BR,1619282649,57,-5.1347,-49.3267,301.15,1.03
Haines Junction,13,CA,1619282649,64,60.7522,-137.5108,273.15,1.19
Sedro-Woolley,40,US,1619282400,93,48.5039,-122.2361,283.15,3.09
Mananjary,3,MG,1619282283,88,-21.2167,48.3333,295.52,0.78
Baracoa,63,CU,1619282649,62,20.3467,-74.4958,302.34,4.65
Churapcha,92,RU,1619282650,99,62.0025,132.4325,259.71,2.1
Antananarivo,40,MG,1619282583,88,-18.9137,47.5361,291.15,4.12
Nishihara,75,JP,1619282651,88,26.1842,127.7558,293.15,4.12
Bikaner,0,IN,1619282358,15,28.0167,73.3,302.3,3.42
Asău,0,RO,1619282653,47,46.4333,26.4,286.15,2.57
Mazagão,75,BR,1619282653,74,-0.115,-51.2894,303.15,4.12
Mossamedes,64,AO,1619282653,74,-15.1961,12.1522,299.84,4.76
Bathsheba,20,BB,1619282227,51,13.2167,-59.5167,303.15,9.26
Portland,90,US,1619282065,87,45.5234,-122.6762,282.15,3.09
Homer,1,US,1619282654,100,59.6425,-151.5483,279.82,1.54
Atbasar,100,KZ,1619282474,39,51.8,68.3333,280.83,6.49
Bud,100,US,1619282654,79,39.447,-86.1758,285.37,2.97
East London,0,ZA,1619282654,82,-33.0153,27.9116,292.15,2.06
Tezu,81,IN,1619282655,27,27.9167,96.1667,297.4,2.37
Rapid Valley,90,US,1619282265,65,44.0625,-103.1463,278.71,6.69
Hualmay,13,PE,1619282655,72,-11.0964,-77.6139,295.33,4.53
Comodoro Rivadavia,0,AR,1619282573,58,-45.8667,-67.5,288.15,4.12
Najrān,75,SA,1619282192,16,17.4924,44.1277,304.15,3.09
Grand Gaube,99,MU,1619282581,81,-20.0064,57.6608,299.82,4.47
Macheng,100,CN,1619282656,91,31.1783,115.0319,287.67,4.54
Pemba,90,MZ,1619282656,100,-12.974,40.5178,297.15,6.17
Port-Gentil,75,GA,1619282289,79,-0.7193,8.7815,302.15,7.87
Presidente Epitácio,30,BR,1619282656,19,-21.7633,-52.1156,306.24,2.68
Kütahya,40,TR,1619282657,63,39.4242,29.9833,289.15,5.66
Soure,95,BR,1619282657,71,-0.7167,-48.5233,301.98,3.53
Redmond,100,US,1619282444,93,47.674,-122.1215,282.04,1.81
Iquique,75,CL,1619282534,52,-20.2208,-70.1431,294.15,5.14
Airai,50,TL,1619282202,90,-8.9266,125.4092,287.04,1.05
Whyalla,0,AU,1619282658,82,-33.0333,137.5833,288.15,2.57
Yamoussoukro,75,CI,1619282658,49,6.8206,-5.2767,308.15,3.09
Snezhnogorsk,40,RU,1619282658,86,69.1933,33.2531,274.15,2.0
Panlaitan,27,PH,1619282658,76,12.1191,119.8486,300.4,2.21
Moree,43,AU,1619282659,71,-29.4667,149.85,283.15,3.6
Thompson,75,CA,1619282162,49,55.7435,-97.8558,267.15,1.03
São Filipe,50,CV,1619282181,73,14.8961,-24.4956,295.51,5.91
Finschhafen,55,PG,1619282660,84,-6.6024,147.8681,298.37,1.64
San Rafael del Sur,20,NI,1619282661,51,11.8485,-86.4384,304.15,6.17
Fortuna,90,US,1619282183,87,40.5982,-124.1573,284.82,7.2
Chifeng,75,CN,1619282661,55,42.2683,118.9636,279.9,0.84
Dingle,82,PH,1619282661,83,10.9995,122.6711,297.95,0.95
Chase,99,CA,1619282662,61,50.8165,-119.6857,283.15,1.03
Port Hardy,90,CA,1619282135,93,50.6996,-127.4199,281.15,1.03
Buluang,43,PH,1619282662,90,13.3068,123.3425,297.47,1.13
‘Āhuimanu,75,US,1619282663,78,21.4447,-157.8378,296.15,5.66
Shilka,99,RU,1619282256,26,51.85,116.0333,278.85,1.78
Gobārdānga,20,IN,1619282664,45,22.8747,88.7586,305.15,3.09
Verkhoyansk,100,RU,1619282288,92,67.5447,133.385,264.92,2.18
Waipawa,46,NZ,1619282664,88,-41.4122,175.5153,287.15,3.6
Upata,88,VE,1619282664,40,8.0086,-62.3989,305.55,4.12
Hazorasp,0,UZ,1619282664,36,41.3194,61.0742,290.15,3.09
San Luis,13,AR,1619282485,40,-33.295,-66.3356,293.0,4.61
Aykhal,88,RU,1619282261,97,66.0,111.5,266.39,2.65
Suozhen,95,CN,1619282665,90,36.9539,118.1047,282.9,1.51
Letlhakane,0,BW,1619282665,23,-21.4167,25.5833,293.79,1.46
Buala,54,SB,1619282136,82,-8.145,159.5921,299.54,0.85
Balyqshy,0,KZ,1619282666,82,47.0667,51.8667,287.15,5.0
Kiama,18,AU,1619282666,77,-34.6833,150.8667,284.26,0.89
Lamesa,0,US,1619282666,38,32.7376,-101.951,290.37,1.34
Penzance,0,GB,1619282666,44,50.1186,-5.5371,286.15,15.95
Andenes,75,NO,1619282667,70,69.3143,16.1194,276.15,5.66
Laguna,90,US,1619282154,66,38.421,-121.4238,287.04,2.06
Starachowice,94,PL,1619282477,1,51.0374,21.0713,282.04,3.09
Lázaro Cárdenas,99,MX,1619282146,49,17.9583,-102.2,302.78,2.93
Nome,20,US,1619282667,80,64.5011,-165.4064,271.48,1.37
Birao,81,CF,1619281886,30,10.2849,22.7882,306.29,1.07
Contamana,18,PE,1619282668,48,-7.3333,-75.0167,306.27,2.4
Broken Hill,0,AU,1619282668,62,-31.95,141.4333,285.15,2.57
Clyde River,75,CA,1619282184,92,70.4692,-68.5914,264.15,2.57
Balaipungut,20,ID,1619282668,89,1.05,101.2833,299.15,2.06
Port Moresby,75,PG,1619282668,94,-9.4431,147.1797,297.15,3.6
Kirakira,96,SB,1619282669,80,-10.4544,161.9205,299.34,1.69
Bāndarban,77,BD,1619282669,74,22.1965,92.2262,295.82,0.94
Dali,1,CN,1619282216,50,25.7,100.1833,288.53,2.43
Kavieng,49,PG,1619282158,78,-2.5744,150.7967,300.38,2.98
Carutapera,95,BR,1619282268,79,-1.195,-46.02,301.71,2.61
Eenhana,50,NA,1619282671,26,-17.4667,16.3333,301.15,1.03
Khandyga,56,RU,1619282674,99,62.6667,135.6,254.38,1.19
Novogurovskiy,0,RU,1619282676,87,54.4678,37.3428,277.15,3.0
Palmerston,80,AU,1619282676,40,-12.486,130.9833,296.15,2.57
Mehamn,100,NO,1619282175,70,71.0357,27.8492,274.51,5.63
Olafsvik,100,IS,1619282176,90,64.8945,-23.7142,280.07,6.25
Pevek,100,RU,1619282677,90,69.7008,170.3133,263.98,1.23
Nokaneng,4,BW,1619282677,28,-19.6667,22.2667,295.83,2.37
Neuquén,0,AR,1619282678,51,-38.9516,-68.0591,290.15,1.03
Pangnirtung,20,CA,1619282235,80,66.1451,-65.7125,272.15,3.6
Provideniya,81,RU,1619282228,92,64.3833,-173.3,273.13,0.62
Puro,68,PH,1619282250,75,12.4841,123.3827,300.15,0.28
Saint Paul Harbor,90,US,1619282139,93,57.79,-152.4072,277.15,1.51
Utete,100,TZ,1619282679,92,-7.986,38.758,296.74,3.06
Marzuq,19,YE,1619282679,63,14.4,46.4667,296.49,4.95
Mitsamiouli,75,KM,1619282205,89,-11.3847,43.2844,299.15,4.63
Constitución,0,CL,1619282680,55,-35.3333,-72.4167,291.58,6.03
Kirkwall,46,GB,1619282680,46,58.9848,-2.9587,284.15,2.06
Alofi,64,NU,1619282680,94,-19.0595,-169.9187,296.15,0.51
Tadine,100,NC,1619282555,82,-21.55,167.8833,296.51,5.84
Christchurch,90,NZ,1619282149,100,-43.5333,172.6333,280.93,1.03
Aklavik,75,CA,1619282683,74,68.2191,-135.0107,270.15,2.57
Serebryansk,50,KZ,1619282683,47,49.6925,83.2892,272.15,1.0
Murray Bridge,9,AU,1619282684,94,-35.1167,139.2667,284.26,1.9
Kalabo,90,ZM,1619282685,44,-14.97,22.6814,296.96,2.0
Camacha,20,PT,1619282318,63,33.0833,-16.3333,292.15,7.72
Tupaciguara,0,BR,1619282685,30,-18.5922,-48.705,301.15,3.09
Marsá Maţrūḩ,0,EG,1619282685,43,31.3525,27.2453,295.15,6.17
Nanortalik,99,GL,1619282254,74,60.1432,-45.2371,278.42,2.25
Concarneau,0,FR,1619282686,40,47.875,-3.9225,295.15,0.51
Tinglev,58,DK,1619282686,50,54.931,9.2524,283.15,9.26
Bac Lieu,48,VN,1619282686,76,9.285,105.7244,301.16,2.95
Mindelo,40,CV,1619282686,47,16.8901,-24.9804,299.15,12.35
Traralgon,85,AU,1619282687,94,-38.1833,146.5333,284.26,0.89
Gofitskoye,76,RU,1619282687,81,45.0792,43.0464,285.27,3.03
Pangoa,31,PE,1619282687,74,-12.1167,-73.0,299.73,1.54
Okato,72,NZ,1619282688,84,-39.2,173.8833,283.71,3.58
Sitka,1,US,1619282166,28,57.0531,-135.33,285.15,1.54
Dunedin,31,NZ,1619282688,81,-45.8742,170.5036,283.15,4.02
Hambantota,40,LK,1619282236,94,6.1241,81.1185,300.15,2.57
Souillac,75,MU,1619282160,83,-20.5167,57.5167,299.15,5.66
Northam,50,GB,1619282689,59,51.0333,-4.2167,285.93,0.89
Mackay,90,AU,1619281913,94,-21.15,149.2,293.15,3.09
Playa Vicente,100,MX,1619282691,28,17.8333,-95.8167,311.91,1.19
Nyurba,71,RU,1619282692,92,63.2842,118.3319,272.83,1.83
Aurangabad,54,IN,1619282659,16,19.8833,75.3333,305.46,3.77
Bengkulu,100,ID,1619282161,87,-3.8004,102.2655,297.77,2.03
Boa Vista,75,BR,1619282693,48,2.8197,-60.6733,305.15,4.12
Matara,80,LK,1619282693,87,5.9485,80.5353,299.06,1.6
Ingham,90,US,1619282693,66,42.6,-84.3833,286.15,3.6
Vila,20,PT,1619282153,77,42.0304,-8.1588,294.26,2.06
Serra Talhada,14,BR,1619282252,33,-7.9919,-38.2983,306.01,3.22
Yangi Marg`ilon,100,UZ,1619282215,32,40.4272,71.7189,292.15,2.06
Port Blair,34,IN,1619282249,71,11.6667,92.75,301.05,3.66
Naze,93,JP,1619282306,66,28.3667,129.4833,291.47,8.77
Paita,0,PE,1619282694,57,-5.0892,-81.1144,300.15,7.2
Tabory,100,RU,1619282694,62,58.5198,64.5495,279.8,2.82
Lingyuan,9,CN,1619282694,60,41.24,119.4011,281.52,2.24
Jiménez,1,MX,1619282695,11,28.3333,-105.4,292.15,1.07
Safi,2,MA,1619282406,67,32.2994,-9.2372,291.93,4.86
Barguzin,100,RU,1619282695,52,53.6167,109.6167,277.91,3.04
Avera,90,US,1619282205,97,33.194,-82.5271,290.15,6.17
Hasaki,20,JP,1619282188,87,35.7333,140.8333,283.15,2.06
Saint Anthony,90,US,1619282696,75,45.0205,-93.218,277.59,5.14
Meulaboh,100,ID,1619282308,86,4.1363,96.1285,297.7,1.66
Luchegorsk,7,RU,1619282698,31,46.4764,134.2569,277.12,4.22
Marmora,98,IT,1619282698,37,44.4583,7.094,295.37,2.06
Adiaké,40,CI,1619282698,84,5.2863,-3.304,303.15,4.63
Golspie,49,GB,1619282699,67,57.9727,-3.978,285.37,2.24
Bollnäs,100,SE,1619282699,58,61.3482,16.3946,277.59,0.45
Kiunga,100,PG,1619282699,99,-6.1219,141.2906,296.4,0.93
Padang,40,ID,1619282276,89,-0.9492,100.3543,299.15,2.06
Wattegama,40,LK,1619282699,94,6.7989,81.4808,300.15,2.57
Makarov,100,RU,1619282700,91,48.6333,142.8,272.31,0.6
Conceição da Barra,55,BR,1619282700,62,-18.5933,-39.7322,301.21,3.53
Ancud,75,CL,1619282180,76,-41.8697,-73.8203,289.82,5.66
Half Moon Bay,75,US,1619282249,82,37.4636,-122.4286,287.04,4.12
Jinxiang,99,CN,1619282701,90,27.4327,120.6062,290.94,2.34
Ambon City,40,ID,1619282701,94,-3.6954,128.1814,298.15,3.09
Punta Cardon,31,VE,1619282701,63,11.6581,-70.215,302.08,12.65
Abu Dhabi,0,AE,1619282517,74,24.4667,54.3667,303.15,3.6
Khislavichi,97,RU,1619282701,68,54.1871,32.1582,276.07,4.99
Babīna,100,IN,1619282702,6,25.25,78.4667,303.17,3.3
Odesa,0,UA,1619282702,46,46.4775,30.7326,284.82,3.0
Beroroha,17,MG,1619282702,51,-21.6667,45.1667,299.73,4.54
Meridian,20,US,1619282703,100,43.6121,-116.3915,283.71,2.06
Leningradskiy,100,RU,1619282158,94,69.3833,178.4167,265.51,1.95
Necochea,4,AR,1619282131,63,-38.5473,-58.7368,291.48,6.26
Isiro,82,CD,1619282703,98,2.7739,27.616,293.74,1.28
Kahului,40,US,1619281993,88,20.8947,-156.47,295.15,6.17
Porto Nacional,40,BR,1619282703,83,-10.7081,-48.4172,301.15,1.54
São João da Barra,20,BR,1619282223,54,-21.6403,-41.0511,302.15,3.04
Zherdevka,79,RU,1619282704,67,51.8486,41.4606,278.56,5.54
Kabanjahe,75,ID,1619282542,100,3.1001,98.4908,298.15,2.57
Marystown,71,CA,1619282704,75,47.1666,-55.1483,279.65,8.94
Piopio,30,NZ,1619282705,99,-38.4667,175.0167,284.26,0.85
Diapaga,65,BF,1619282706,9,12.0708,1.7889,314.07,2.44
Portree,28,GB,1619282165,55,57.4129,-6.1942,285.93,3.58
Haputale,40,LK,1619282706,94,6.7681,80.9595,300.15,2.57
Marshall,90,US,1619282707,94,34.3834,-86.3333,288.15,3.33
Flagstaff,1,US,1619282693,35,35.1981,-111.6513,288.15,6.69
Sotouboua,99,TG,1619282708,59,8.5667,0.9833,300.84,0.6
Belaya Gora,94,RU,1619282708,100,68.5333,146.4167,250.97,1.6
Khorixas,86,NA,1619282708,21,-20.3667,14.9667,300.97,1.57
Kungurtug,97,RU,1619282709,94,50.5994,97.5228,267.14,0.85
Ndioum,0,SN,1619282709,11,16.5129,-14.6471,314.15,3.09
Kibondo,86,TZ,1619282709,90,-3.5864,30.7203,290.43,0.94
Varnavino,100,RU,1619282709,77,57.4035,45.0916,281.79,5.75
Klaksvík,87,FO,1619282152,57,62.2266,-6.589,283.15,2.06
Oyama,20,JP,1619282711,93,36.3,139.8,290.37,1.54
Takoradze,92,GH,1619282646,72,4.8845,-1.7554,302.66,5.29
Itarema,65,BR,1619282163,78,-2.9248,-39.9167,301.71,6.47
Gazojak,3,TM,1619282711,24,41.1875,61.4036,294.77,8.22
Itoman,75,JP,1619282712,88,26.1247,127.6694,293.15,4.12
Severo-Yeniseyskiy,100,RU,1619282712,98,60.3725,93.0408,271.96,0.36
Labuhan,75,ID,1619282166,82,-6.8844,112.2051,299.0,2.77
Egvekinot,100,RU,1619282675,88,66.3167,-179.1667,266.69,0.78
Sosnovo-Ozerskoye,98,RU,1619282713,22,52.5249,111.5418,277.25,3.13
Peruíbe,67,BR,1619282714,74,-24.32,-46.9983,296.92,2.24
Los Llanos de Aridane,40,ES,1619282228,64,28.6585,-17.9182,295.15,4.63
Fernie,100,CA,1619282419,93,49.5,-115.0687,272.15,1.54
Ivanivka,80,UA,1619282714,59,46.7208,34.553,281.97,4.83
Moose Factory,90,CA,1619282714,74,51.2585,-80.6094,269.15,3.6
Atar,0,MR,1619282306,8,20.5169,-13.0499,310.11,7.69
Koster,5,ZA,1619282715,27,-25.863,26.8976,289.37,3.23
Sīkar,0,IN,1619282715,17,27.6167,75.15,299.12,3.12
Platón Sánchez,80,MX,1619282715,33,21.2833,-98.3667,309.46,6.94
Grindavik,90,IS,1619282305,87,63.8424,-22.4338,281.15,11.32
Iguape,34,BR,1619282716,68,-24.7081,-47.5553,297.4,2.11
Barranca,57,PE,1619282156,73,-10.75,-77.7667,294.64,4.0
Ayagoz,3,KZ,1619282476,40,47.9714,80.4392,274.93,2.33
Pisco,1,PE,1619282163,78,-13.7,-76.2167,294.26,4.12
Mount Isa,7,AU,1619282717,28,-20.7333,139.5,295.15,3.09
Staryy Nadym,100,RU,1619282717,87,65.6118,72.6842,273.67,2.45
Washougal,90,US,1619282718,81,45.5826,-122.3534,282.15,1.54
Santa Maria,90,BR,1619282316,78,-29.6842,-53.8069,294.15,1.03
Alpena,20,US,1619282718,29,45.0617,-83.4327,289.15,3.09
Reconquista,100,AR,1619282719,91,-29.15,-59.65,292.51,1.69
Voyvozh,94,RU,1619282719,68,62.892,54.9635,281.47,3.23
Porbandar,80,IN,1619282719,77,21.6422,69.6093,300.87,4.4
Dolores,56,AR,1619282719,57,-36.3132,-57.6792,294.37,6.63
Guerrero Negro,30,MX,1619282212,62,27.9769,-114.0611,291.37,6.23
Casablanca,75,MA,1619282612,73,33.5928,-7.6192,294.15,3.6
Sam Chuk,91,TH,1619282720,78,14.7576,100.0899,302.59,4.68
Evensk,100,RU,1619282149,82,61.95,159.2333,264.79,4.85
Ladário,0,BR,1619282709,48,-19.0047,-57.6017,305.15,4.63
Taihecun,1,CN,1619282720,35,45.8,130.85,276.66,2.93
Luanda,20,AO,1619282446,78,-8.8368,13.2343,300.15,3.09
Tessalit,0,ML,1619282267,4,20.1986,1.0114,311.84,4.95
Port Augusta,0,AU,1619282723,82,-32.5,137.7667,288.15,2.57
Razdol'noye,0,RU,1619282723,93,43.55,131.9167,272.15,1.0
Sheltozero,100,RU,1619282724,97,61.3667,35.3667,275.36,4.32
Margate,9,GB,1619282724,70,51.3813,1.3862,283.15,1.34
Carmo do Rio Claro,0,BR,1619282724,28,-20.9719,-46.1189,300.94,1.61
Namatanai,49,PG,1619282598,80,-3.6667,152.4333,298.9,2.42
Bayjī,33,IQ,1619282725,11,34.9311,43.487,302.58,2.61
Dwārka,3,IN,1619282137,77,22.2394,68.9678,301.01,5.19
Arrondissement de Saint-Claude,20,FR,1619282725,28,46.5,5.8333,294.15,3.6
Glinka,79,RU,1619282725,68,54.6404,32.8781,275.57,4.66
Trairi,47,BR,1619282726,75,-3.2778,-39.2689,301.95,5.27
Dolinsk,40,RU,1619282726,86,47.35,142.8,273.15,4.0
Kabompo,91,ZM,1619282726,55,-13.5927,24.2008,294.82,2.43
Aberdeen,9,GB,1619282468,46,57.1437,-2.0981,284.82,3.6
Idrinskoye,36,RU,1619282727,93,54.3708,92.1358,273.06,1.6
Terney,2,RU,1619282580,64,45.0503,136.6092,275.97,3.19
Manggar,20,ID,1619282728,75,-2.8833,108.2667,300.57,3.03
Lorengau,46,PG,1619282191,78,-2.0226,147.2712,299.87,2.25
Morristown,40,US,1619282590,100,36.214,-83.2949,283.15,4.12
Umeå,75,SE,1619282729,75,63.8284,20.2597,275.15,9.26
San Cristobal,40,VE,1619282202,58,7.7669,-72.225,303.15,5.14
Baruun-Urt,100,MN,1619282729,18,46.6806,113.2792,279.77,4.89
Havre-St-Pierre,90,CA,1619282174,75,50.2334,-63.5986,278.15,8.23
Nabire,100,ID,1619282211,96,-3.3667,135.4833,296.48,1.02
Pyn U Lwin,20,MM,1619282729,29,22.0333,96.4667,308.15,1.54
Pimentel,0,PE,1619282275,64,-6.8367,-79.9342,297.15,6.69
Fonte Boa,34,BR,1619282730,71,-2.4959,-66.2662,303.91,2.07
Flinders,31,AU,1619282730,78,-34.5833,150.8552,284.26,0.45
Nantucket,1,US,1619282195,41,41.2835,-70.0995,289.15,9.26
Kaeo,79,NZ,1619282731,96,-35.1,173.7833,284.82,1.34
Bandarbeyla,50,SO,1619282226,75,9.4942,50.8122,301.76,4.71
Whitehorse,20,CA,1619282731,64,60.7161,-135.0538,276.48,1.54
Dimāpur,32,IN,1619282731,27,25.9,93.7333,297.59,0.83
Tuatapere,88,NZ,1619282177,78,-46.1333,167.6833,282.04,3.58
Ylivieska,98,FI,1619282732,93,64.0833,24.55,274.82,0.89
Mayo,1,US,1619282317,51,38.8876,-76.5119,291.48,4.63
Isangel,83,VU,1619282160,82,-19.55,169.2667,298.34,4.67
Rafrāf,20,TN,1619282732,42,37.1904,10.1837,292.15,4.63
Martinsville,90,US,1619282576,71,36.6915,-79.8725,284.82,2.01
Lilongwe,20,MW,1619282733,73,-13.9669,33.7873,294.15,4.12
Beloslav,75,BG,1619282733,87,43.1833,27.7,283.15,3.6
Noumea,0,NC,1619282587,100,-22.2763,166.4572,299.26,2.06
Katubao,73,PH,1619282733,76,5.8892,124.8294,300.19,3.37
Kloulklubed,75,PW,1619282220,83,7.0419,134.2556,301.15,4.12
Waingapu,63,ID,1619282734,85,-9.6567,120.2641,297.94,2.96
Nhulunbuy,40,AU,1619282593,73,-12.2333,136.7667,299.15,3.09
Narrabri,5,AU,1619282734,81,-30.3167,149.7833,279.15,2.58
Ambatofinandrahana,2,MG,1619282734,93,-20.55,46.8,287.56,2.5
Pokhara,99,NP,1619282735,28,28.2333,83.9833,295.43,3.39
Galle,72,LK,1619282735,82,6.0367,80.217,300.07,1.11
Samandağ,0,TR,1619282735,37,36.0842,35.9771,302.15,2.06
Tegul'det,100,RU,1619282736,96,57.3064,88.1667,274.19,2.08
Batagay-Alyta,100,RU,1619282736,83,67.8006,130.4114,265.02,2.6
Lake Cowichan,90,CA,1619282483,87,48.825,-124.0546,282.15,0.43
Khovu-Aksy,54,RU,1619282736,48,51.1333,93.6,271.8,1.37
Shiyan,100,CN,1619282737,94,32.6475,110.7781,284.77,0.88
Karratha,0,AU,1619282266,40,-20.7377,116.8463,299.48,2.51
San Rafael,6,AR,1619282439,45,-34.6177,-68.3301,292.49,3.3
Armidale,20,AU,1619282737,81,-30.5167,151.65,277.18,0.77
Makakilo City,1,US,1619282164,73,21.3469,-158.0858,296.15,2.06
Khovd,0,MN,1619282179,20,48.0056,91.6419,270.61,7.1
Lagan,48,RU,1619282738,69,45.3929,47.3707,287.07,5.88
Koumac,88,NC,1619282739,88,-20.5667,164.2833,297.3,5.21
Abalak,100,RU,1619282740,51,58.1286,68.5944,279.85,2.55
Balma,0,FR,1619282740,30,43.6111,1.4994,294.15,8.75
Blind River,1,CA,1619282740,43,46.1834,-82.9582,285.15,6.17
Alice Springs,1,AU,1619282202,58,-23.7,133.8833,284.15,1.54
Ayan,79,RU,1619282184,74,56.45,138.1667,268.93,4.99
Makkah al Mukarramah,22,SA,1619282674,29,21.4267,39.8261,304.93,2.43
Malbork,64,PL,1619282741,59,54.0359,19.0266,280.93,1.79
Kysyl-Syr,100,RU,1619282742,90,63.8986,122.7617,274.42,3.49
Talara,0,PE,1619282742,57,-4.5772,-81.2719,300.15,7.2
Rodrigues Alves,75,BR,1619282743,70,-7.738,-72.6509,304.15,1.54
Largo,90,US,1619282582,65,27.9095,-82.7873,302.15,5.14
Liliani,0,PK,1619282743,24,32.2065,72.9537,297.59,2.44
Vestmannaeyjar,90,IS,1619282291,93,63.4427,-20.2734,280.15,7.72
Lidzbark Warmiński,29,PL,1619282744,59,54.1259,20.5795,275.97,5.08
Kailua,75,US,1619282458,78,21.4022,-157.7394,296.15,5.66
Kaili,95,ID,1619282744,93,-3.4626,120.2147,292.02,1.55
Manyana,0,BW,1619282744,23,-23.4,21.7167,293.68,2.01
Sampit,89,ID,1619282745,86,-2.5333,112.95,297.12,0.96
Mergen,2,CN,1619282745,39,49.1833,125.2167,279.29,4.28
Sioux Lookout,40,CA,1619282557,51,50.1001,-91.917,272.15,2.57
Sur,3,OM,1619282745,39,22.5667,59.5289,304.24,4.3
Keetmanshoop,0,NA,1619282746,15,-26.5833,18.1333,299.73,3.95
Nouadhibou,0,MR,1619282251,68,20.931,-17.0347,295.15,11.32
Paris,0,FR,1619282527,34,48.8534,2.3488,293.15,5.14
Cairns,90,AU,1619282746,100,-16.9167,145.7667,296.48,6.17
Launceston,52,AU,1619282746,81,-41.45,147.1667,278.71,2.06
Presidencia Roque Sáenz Peña,100,AR,1619282747,83,-26.7852,-60.4388,295.93,1.79
Rio Grande,0,BR,1619282747,53,-32.035,-52.0986,299.26,2.57
Palmer,40,US,1619282747,22,42.1584,-72.3287,293.15,5.66
Oxelösund,40,SE,1619282748,70,58.6706,17.1015,277.15,1.54
Kununurra,10,AU,1619282580,38,-15.7667,128.7333,296.15,3.6
Shenjiamen,100,CN,1619282286,92,29.9576,122.298,289.34,2.14
Saint-Paul,75,RE,1619282748,78,-21.0096,55.2707,298.15,8.75
Gobabis,0,NA,1619282584,20,-22.45,18.9667,293.21,2.66
Rantepao,100,ID,1619282748,97,-2.9701,119.8978,292.56,0.87
Lata,100,PT,1619282250,87,40.1629,-8.3327,291.48,0.45
Kamenka,79,RU,1619282750,77,51.3223,42.7678,279.82,5.65
Taseyevo,100,RU,1619282750,99,57.2169,94.8978,273.73,0.32
Oriximiná,57,BR,1619282180,78,-1.7656,-55.8661,302.05,1.3
Seoul,0,KR,1619282514,87,37.5683,126.9778,286.15,1.03
Togur,10,RU,1619282752,92,58.3631,82.8265,270.92,1.43
Tual,99,ID,1619282242,67,-5.6667,132.75,302.5,7.6
Solano,20,US,1619282640,66,38.2333,-121.9511,286.48,5.14
Albury,32,AU,1619282753,100,-36.0833,146.9167,279.26,1.25
Nizwá,80,OM,1619282753,14,22.9333,57.5333,304.34,1.7
Visby,90,SE,1619282754,65,57.6409,18.296,278.15,2.57
Bethel,1,US,1619282754,26,41.3712,-73.414,293.15,3.6
La Providencia,3,MX,1619282754,50,28.7167,-111.5833,298.71,0.89
Chavantes,36,BR,1619282755,33,-23.0389,-49.7094,301.9,0.68
Severodvinsk,20,RU,1619282755,76,64.5635,39.8302,284.15,4.0
San Lorenzo,90,PY,1619282755,94,-25.3333,-57.5333,293.15,3.09
Bolshaya Rechka,40,RU,1619282755,75,51.9503,104.7355,274.15,1.0
Quimper,0,FR,1619282756,40,48.0,-4.1,294.15,0.51
Dale,90,US,1619282756,100,38.1689,-86.99,285.15,2.06
Constantine,40,DZ,1619282210,35,36.365,6.6147,295.15,2.06
Muros,100,ES,1619282756,72,42.7762,-9.0603,293.15,0.45
Kuytun,100,RU,1619282757,91,54.3419,101.5036,272.41,0.28
Mahon,0,ES,1619282543,59,39.8885,4.2658,291.15,4.63
Kudahuvadhoo,14,MV,1619282209,65,2.6708,72.8944,301.89,3.51
Vikhorevka,100,RU,1619282757,100,56.1201,101.1636,273.15,1.0
Ilhéus,40,BR,1619282757,74,-14.7889,-39.0494,303.15,4.63
Erice,20,IT,1619282758,68,38.037,12.5865,291.15,7.2
Nurota,47,UZ,1619282758,22,40.5614,65.6886,293.15,4.12
Bay Roberts,75,CA,1619282758,43,47.5999,-53.2648,283.15,10.29
Aitape,78,PG,1619282759,90,-3.1374,142.3475,298.21,1.19
Akdepe,0,TM,1619282759,30,42.0551,59.3788,293.15,3.09
Lompoc,11,US,1619282205,82,34.6391,-120.4579,284.15,3.6
Caravelas,34,BR,1619282176,66,-17.7125,-39.2481,300.77,2.79
Polunochnoye,100,RU,1619282760,93,60.8697,60.4153,278.46,2.93
Grand Haven,75,US,1619282761,54,43.0631,-86.2284,286.15,4.12
Naryan-Mar,96,RU,1619282761,98,67.6713,53.087,276.21,4.32
Ambilobe,38,MG,1619282762,89,-13.2,49.05,297.16,1.21
Laas,0,IT,1619282254,31,46.6166,10.7002,297.15,3.6
Verāval,100,IN,1619282763,80,20.9,70.3667,300.53,5.9
Lunenburg,5,CA,1619282763,35,44.3835,-64.3155,290.37,11.83
Grão Mogol,32,BR,1619282763,31,-16.5594,-42.8897,303.98,0.53
Yeppoon,99,AU,1619282237,77,-23.1333,150.7333,293.15,2.57
Kavaratti,11,IN,1619282227,72,10.5669,72.642,302.41,3.43
Port Hawkesbury,90,CA,1619282082,37,45.6169,-61.3485,284.26,7.2
Pyu,87,MM,1619282765,75,18.4833,96.4333,300.47,4.3
Okha,46,RU,1619282521,87,53.5739,142.9478,268.77,4.45
São Domingos,56,BR,1619282765,39,-13.3983,-46.3183,304.48,1.04
Samarai,100,PG,1619282766,80,-10.6167,150.6667,300.85,6.29
Smithers,20,CA,1619282701,39,54.7804,-127.1743,280.15,3.6
Beberibe,20,BR,1619282767,74,-4.1797,-38.1306,303.15,8.75
